City_ID,City,Lat,Lng,Max Temp,Humidity,Cloudiness,Wind Speed,Country,Date
0,gembu,6.7,11.2667,64.63,95,100,3.09,NG,1723461810
1,yellowknife,62.456,-114.3525,68.41,74,100,6.91,CA,1723461811
2,margaret river,-33.95,115.0667,59.34,57,95,19.08,AU,1723461813
3,darwin,-12.4611,130.8418,76.98,61,0,5.75,AU,1723461814
4,bilibino,68.0546,166.4372,47.91,76,61,5.37,RU,1723461815
5,blackmans bay,-43.0167,147.3167,47.73,81,98,1.01,AU,1723461816
6,whakatane,-37.9585,176.9854,49.51,81,78,5.99,NZ,1723461817
7,invercargill,-46.4,168.35,46.02,74,78,3.0,NZ,1723461818
8,sao jose da coroa grande,-8.8978,-35.1478,79.7,67,35,11.34,BR,1723461819
9,kailua-kona,19.6406,-155.9956,74.28,87,96,1.01,US,1723461820
10,beira,-19.8436,34.8389,82.49,65,0,9.22,MZ,1723461821
11,edinburgh of the seven seas,-37.0676,-12.3116,53.06,89,77,46.64,SH,1723461822
12,avarua,-21.2078,-159.775,66.25,82,20,3.44,CK,1723461602
13,grytviken,-54.2811,-36.5092,15.17,69,96,6.87,GS,1723461824
14,udachny,66.4167,112.4,53.83,65,100,17.81,RU,1723461825
15,port-aux-francais,-49.35,70.2167,38.39,89,88,45.79,TF,1723461826
16,vorgashor,67.5833,63.95,64.04,43,99,14.85,RU,1723461827
17,ilulissat,69.2167,-51.1,57.22,38,20,16.11,GL,1723461828
18,sinop,41.7711,34.8709,78.44,53,0,13.51,TR,1723461829
19,alice springs,-23.7,133.8833,56.75,47,0,0.0,AU,1723461830
20,lihue,21.9789,-159.3672,78.39,81,75,13.8,US,1723461831
21,kerikeri,-35.2268,173.9474,55.9,84,76,9.37,NZ,1723461833
22,papatowai,-46.5619,169.4708,44.82,81,94,11.43,NZ,1723461834
23,la gi,10.6667,107.7833,82.31,84,82,11.07,VN,1723461835
24,paraiso,9.8383,-83.8656,61.0,96,38,2.37,CR,1723461836
25,arauca,7.0847,-70.7591,75.2,100,58,1.14,CO,1723461544
26,adamstown,-25.066,-130.1015,66.52,61,90,20.56,PN,1723461838
27,howrah,22.5892,88.3103,89.6,70,75,11.5,IN,1723461839
28,wailua homesteads,22.0669,-159.378,77.79,88,75,13.8,US,1723461840
29,ermelo,-26.5333,29.9833,68.38,14,0,6.11,ZA,1723461667
30,whitehorse,60.7161,-135.0538,54.37,66,75,18.41,CA,1723461842
31,puerto rico,-26.796,-55.024,42.12,92,4,1.34,AR,1723461843
32,hermanus,-34.4187,19.2345,58.64,62,97,9.06,ZA,1723461844
33,juan griego,11.0817,-63.9655,78.93,89,76,1.14,VE,1723461845
34,colonia,50.9333,6.95,90.45,54,0,11.5,DE,1723461846
35,punta arenas,-53.15,-70.9167,37.51,93,100,9.22,CL,1723461711
36,bredasdorp,-34.5322,20.0403,60.48,57,81,6.87,ZA,1723461730
37,stranraer,54.9023,-5.0273,61.21,84,86,12.59,GB,1723461849
38,arkalyk,50.2486,66.9114,79.93,31,62,12.28,KZ,1723461851
39,antonio enes,-16.2325,39.9086,83.21,53,1,12.53,MZ,1723461852
40,cill airne,52.05,-9.5167,64.45,68,75,11.5,IE,1723461853
41,petropavlovsk-kamchatsky,53.0452,158.6483,52.39,100,100,6.71,RU,1723461854
42,nyandoma,61.669,40.1991,61.97,81,100,5.23,RU,1723461856
43,benguela,-12.5763,13.4055,75.24,68,11,7.9,AO,1723461857
44,muynoq,43.7683,59.0214,91.85,23,42,17.85,UZ,1723461859
45,novyy urengoy,66.0833,76.6333,58.32,82,100,3.29,RU,1723461860
46,port elizabeth,-33.918,25.5701,64.31,54,66,5.01,ZA,1723461861
47,banyo,6.75,11.8167,68.61,93,100,2.24,CM,1723461862
48,badger,64.8,-147.5333,51.71,89,100,14.97,US,1723461863
49,aasiaat,68.7098,-52.8699,39.47,75,41,11.99,GL,1723461864
50,saint-pierre,-21.3393,55.4781,82.08,51,0,18.41,RE,1723461865
51,port lincoln,-34.7333,135.8667,60.8,57,50,7.2,AU,1723461866
52,praia da vitoria,38.7333,-27.0667,75.76,64,20,4.59,PT,1723461853
53,new norfolk,-42.7826,147.0587,45.63,78,65,3.15,AU,1723461869
54,mulchen,-37.7167,-72.2333,41.83,87,85,3.71,CL,1723461870
55,salahonda,2.1019,-78.7217,77.25,86,94,13.31,CO,1723461871
56,sao felix do xingu,-6.6447,-51.995,79.14,46,25,0.98,BR,1723461872
57,kralendijk,12.15,-68.2667,84.18,74,40,12.66,BQ,1723461873
58,bethel,41.3712,-73.414,60.33,93,0,0.0,US,1723461874
59,mejit,10.2753,170.8646,82.78,79,95,9.62,MH,1723461876
60,puerto natales,-51.7236,-72.4875,34.25,100,75,2.3,CL,1723461877
61,lerwick,60.1545,-1.1494,57.81,85,100,29.42,GB,1723461878
62,kasamwa,-2.85,32.4333,90.1,21,46,7.02,TZ,1723461880
63,iqaluit,63.7506,-68.5145,38.93,80,20,4.61,CA,1723461881
64,isangel,-19.55,169.2667,70.77,76,100,17.36,VU,1723461767
65,vadso,70.0744,29.7487,64.56,72,6,12.66,NO,1723461883
66,zhanibek,49.4167,46.85,81.01,22,35,20.38,KZ,1723461884
67,longyearbyen,78.2186,15.6401,66.04,45,40,17.27,SJ,1723461885
68,mountain home,43.133,-115.6912,65.14,41,0,6.91,US,1723461728
69,tiksi,71.6872,128.8694,36.23,86,100,11.63,RU,1723461887
70,horta,38.5333,-28.6333,75.02,72,40,10.36,PT,1723461888
71,ushuaia,-54.8,-68.3,37.06,81,100,4.61,AR,1723461629
72,iskateley,67.6803,53.1512,68.14,38,100,15.64,RU,1723461890
73,nantucket,41.2835,-70.0995,67.14,82,0,5.75,US,1723461746
74,kodiak,57.79,-152.4072,51.31,62,0,4.61,US,1723461893
75,coracora,-15.0333,-73.7833,46.17,57,34,7.81,PE,1723461895
76,ulanhot,46.0833,122.0833,71.11,80,100,2.24,CN,1723461896
77,waitangi,-43.9535,-176.5597,43.83,92,100,7.0,NZ,1723461897
78,tolanaro,-25.0319,46.9987,80.67,54,0,4.61,MG,1723461898
79,tottori,35.5,134.2333,82.47,74,75,8.05,JP,1723461899
80,polyarnyy,69.1989,33.4478,64.47,62,50,5.32,RU,1723461900
81,newman,37.3138,-121.0208,65.03,79,36,1.01,US,1723461901
82,zhaodong,46.0833,125.9833,70.21,86,93,5.01,CN,1723461902
83,teknaf,20.8624,92.3058,79.93,89,100,4.5,BD,1723461903
84,new plymouth,-39.0667,174.0833,45.32,100,41,9.13,NZ,1723461904
85,ribeira grande,38.5167,-28.7,75.78,64,40,10.36,PT,1723461905
86,banes,20.9625,-75.7186,78.24,93,24,2.62,CU,1723461906
87,yanchep,-31.55,115.6833,60.76,76,83,12.48,AU,1723461907
88,hangu,39.2489,117.7892,79.56,81,5,7.96,CN,1723461908
89,bembereke,10.2283,2.6634,81.68,68,99,10.04,BJ,1723461909
90,tura,25.5198,90.2201,80.28,95,100,3.94,IN,1723461911
91,west island,-12.1568,96.8225,80.58,74,85,10.36,CC,1723461912
92,kavieng,-2.5744,150.7967,81.81,81,100,15.52,PG,1723461913
93,jamestown,42.097,-79.2353,58.64,100,40,5.75,US,1723461914
94,st. paul,44.9444,-93.0933,57.88,92,0,0.0,US,1723461627
95,princeville,45.7668,-61.2985,66.31,85,20,4.61,CA,1723461916
96,vorkuta,67.5,64.0,65.35,41,100,13.91,RU,1723461917
97,mangai,-4.05,19.5333,99.84,25,35,4.05,CD,1723461918
98,kattivakkam,13.2167,80.3167,91.11,76,91,14.99,IN,1723461919
99,kourou,5.1552,-52.6478,77.05,85,45,5.7,GF,1723461920
100,camacupa,-12.0167,17.4833,86.72,8,0,8.41,AO,1723461921
101,antofagasta,-23.65,-70.4,52.9,90,85,2.53,CL,1723461776
102,lamar,33.6668,-95.5836,71.51,97,0,6.91,US,1723461923
103,labrador city,52.9463,-66.9114,62.19,75,75,11.01,CA,1723461924
104,tobelo,1.7284,128.0095,81.34,78,99,2.44,ID,1723461925
105,uturoa,-16.7333,-151.4333,77.14,84,68,14.58,PF,1723461927
106,isafjordur,66.0755,-23.124,50.04,71,20,6.91,IS,1723461928
107,alaghsas,17.0187,8.0168,87.69,66,40,8.05,NE,1723461929
108,albany,42.6001,-73.9662,58.26,50,2,3.78,US,1723461771
109,brookings,44.3114,-96.7984,61.05,94,100,8.05,US,1723461880
110,healesville,-37.65,145.5167,51.96,87,41,3.85,AU,1723461932
111,inhambane,-23.865,35.3833,85.98,48,0,4.61,MZ,1723461933
112,kuqa,41.7278,82.9364,90.99,20,37,6.04,CN,1723461934
113,mayskiy,47.6931,40.1025,76.3,32,58,15.82,RU,1723461935
114,caleta de carquin,-11.0925,-77.6267,59.9,84,56,6.85,PE,1723461936
115,sao miguel do araguaia,-13.275,-50.1628,74.62,27,2,5.97,BR,1723461937
116,selfoss,63.9331,-20.9971,56.01,65,73,11.34,IS,1723461938
117,chinde,26.8212,87.7095,82.83,83,100,0.94,NP,1723461939
118,posto fiscal rolim de moura,-13.0833,-62.2667,63.55,55,0,2.68,BR,1723461940
119,puerto ayora,-0.7393,-90.3518,65.55,99,95,4.0,EC,1723461941
120,la passe,45.5549,-0.8967,73.6,82,54,10.6,FR,1723461942
121,talnakh,69.4865,88.3972,74.48,27,26,1.92,RU,1723461943
122,gunjur,13.2019,-16.7339,86.07,74,75,5.75,GM,1723461945
123,gimbi,9.1667,35.8333,68.41,73,87,5.66,ET,1723461946
124,mata-utu,-13.2816,-176.1745,78.84,79,94,25.77,WF,1723461947
125,olonkinbyen,70.9221,-8.7187,39.69,84,100,8.48,SJ,1723461948
126,letlhakane,-21.4167,25.5833,90.99,5,6,3.62,BW,1723461949
127,vanimo,-2.6741,141.3028,79.74,90,36,7.34,PG,1723461950
128,mirny,62.5353,113.9611,66.18,89,93,3.96,RU,1723461951
129,dudinka,69.4058,86.1778,68.95,40,45,14.38,RU,1723461952
130,aroma,15.8167,36.1333,86.97,57,97,14.2,SD,1723461914
131,port mathurin,-19.6833,63.4167,71.83,66,66,23.71,MU,1723461954
132,undurkhaan,47.3194,110.6556,75.88,58,0,6.11,MN,1723461955
133,stanley,54.868,-1.6985,71.53,75,20,10.36,GB,1723461956
134,kapa'a,22.0752,-159.319,79.12,84,75,13.8,US,1723461957
135,itoman,26.1247,127.6694,86.02,74,20,6.91,JP,1723461958
136,liman,48.9884,37.8023,80.56,21,25,19.26,UA,1723461959
137,tralee,52.2704,-9.7026,64.65,68,75,11.5,IE,1723461954
138,utrik,11.2278,169.8474,82.62,82,100,11.9,MH,1723461961
139,karatsu,33.4425,129.9697,80.04,84,58,12.66,JP,1723461962
140,villa de arista,22.65,-100.8333,62.33,93,81,2.37,MX,1723461963
141,cestos city,5.46,-9.5828,79.45,78,100,8.32,LR,1723461964
142,cova figueira,14.8905,-24.2934,69.98,77,70,5.53,CV,1723461965
143,amble,55.3333,-1.5833,62.74,88,20,18.41,GB,1723461967
144,verkhniy baskunchak,48.2256,46.7217,84.76,20,68,19.48,RU,1723461968
145,touros,-5.1989,-35.4608,79.52,68,100,12.66,BR,1723461969
146,alotau,-10.3069,150.4462,74.8,95,82,1.19,PG,1723461970
147,koh kong,11.6175,102.9806,83.91,75,73,5.14,KH,1723461971
148,duartina,-22.4144,-49.4039,52.83,47,100,4.68,BR,1723461972
149,sinabang,2.4803,96.3801,82.0,76,53,1.74,ID,1723461973
150,vila velha,-20.3297,-40.2925,73.35,83,20,5.75,BR,1723461760
151,domna,51.8971,113.1573,84.36,42,20,2.24,RU,1723461975
152,anadyr,64.75,177.4833,55.9,62,0,8.95,RU,1723461977
153,broome,42.2506,-75.833,58.06,97,75,3.44,US,1723461978
154,saipan,15.1355,145.701,86.7,74,0,0.0,MP,1723461753
155,el calafate,-50.3408,-72.2768,35.71,93,98,0.92,AR,1723461980
156,college,64.8569,-147.8028,51.78,86,100,14.97,US,1723461981
157,khandyga,62.6667,135.6,60.24,97,65,4.36,RU,1723461982
158,atafu village,-8.5421,-172.5159,81.23,80,100,15.84,TK,1723461983
159,tazovsky,67.4667,78.7,51.96,97,100,10.31,RU,1723461984
160,dobrota,42.4542,18.7683,97.72,42,0,5.75,ME,1723461985
161,ma'rib,15.4591,45.3253,95.09,27,96,5.59,YE,1723461986
162,pisco,-13.7,-76.2167,59.05,88,100,4.61,PE,1723461987
163,hawaiian paradise park,19.5933,-154.9731,72.91,96,75,0.0,US,1723461988
164,howard springs,-12.497,131.047,73.98,69,31,6.08,AU,1723461989
165,slantsy,59.1182,28.0914,64.06,55,63,6.62,RU,1723461990
166,kaoma,-14.7833,24.8,90.25,8,0,10.18,ZM,1723461993
167,constitucion,-35.3333,-72.4167,48.0,76,94,5.57,CL,1723461943
168,katsuren-haebaru,26.3369,127.8719,87.1,70,0,0.0,JP,1723461995
169,gadzhiyevo,69.2551,33.3362,64.51,62,46,6.22,RU,1723461996
170,thompson,55.7435,-97.8558,51.96,87,0,0.0,CA,1723461998
171,mount gambier,-37.8333,140.7667,55.92,73,92,7.38,AU,1723462000
172,huittinen,61.1833,22.7,59.11,90,99,4.0,FI,1723462001
173,synel'nykove,48.3204,35.5179,80.56,21,1,18.16,UA,1723462002
174,mhamid,29.82,-5.72,103.57,12,3,5.08,MA,1723462003
175,port saint john's,-31.6229,29.5448,66.94,47,65,11.59,ZA,1723462004
176,mogoytuy,51.2833,114.9167,82.0,38,0,5.93,RU,1723462005
177,quellon,-43.1167,-73.6167,45.73,89,100,10.18,CL,1723462006
178,kimbe,-5.5502,150.1429,77.11,91,36,3.56,PG,1723462007
179,dombarovskiy,50.7587,59.5386,82.58,29,100,9.91,RU,1723462008
180,namibe,-15.1961,12.1522,70.93,73,76,9.08,AO,1723462009
181,areia branca,-4.9561,-37.1369,79.97,61,30,16.13,BR,1723462010
182,pangody,65.85,74.4859,58.87,80,95,7.9,RU,1723462011
183,roswell,34.0232,-84.3616,67.87,92,0,3.44,US,1723461819
184,kirakira,-10.4544,161.9205,78.6,81,100,18.68,SB,1723462013
185,remire-montjoly,4.9167,-52.2667,80.64,89,0,3.44,GF,1723462014
186,keflavik,64.0049,-22.5624,55.83,71,0,8.05,IS,1723462015
187,lebu,-37.6167,-73.65,45.99,87,96,11.23,CL,1723462016
188,lompoc,34.6391,-120.4579,52.52,90,100,3.44,US,1723462018
189,mezhdurechenskiy,59.6,65.9333,67.39,39,48,3.83,RU,1723462019
190,qui nhon,13.7667,109.2333,87.53,71,65,11.01,VN,1723462020
191,aiken,33.5835,-81.5998,76.57,99,100,3.44,US,1723461842
192,lubang,13.8584,120.124,85.24,74,55,11.36,PH,1723461793
193,klyuchi,52.2667,79.1667,70.39,45,99,9.33,RU,1723462023
194,port-gentil,-0.7193,8.7815,78.76,78,100,10.36,GA,1723462025
195,fale old settlement,-9.3852,-171.2468,81.77,80,50,17.18,TK,1723462026
196,primero de mayo,-32.2552,-58.4228,35.17,82,3,6.22,AR,1723462027
197,pariaman,-0.619,100.12,81.37,80,44,5.26,ID,1723462028
198,nyrob,60.733,56.7202,65.66,51,80,3.22,RU,1723462029
199,karmaskaly,54.3709,56.1837,63.46,86,98,17.18,RU,1723462030
200,cardenas,23.0375,-81.2047,77.85,92,1,6.71,CU,1723462031
201,walvis bay,-22.9575,14.5053,67.15,55,0,5.75,NA,1723462032
202,lata,40.1629,-8.3327,84.49,48,36,6.46,PT,1723462033
203,qianzhou,28.3167,109.7167,77.72,77,33,7.85,CN,1723462034
204,onega,63.9061,38.1404,63.93,74,98,9.44,RU,1723462035
205,chonchi,-42.6128,-73.8092,44.46,89,100,2.06,CL,1723462036
206,ramon',51.9157,39.3361,66.24,59,75,13.42,RU,1723462037
207,catabola,-12.15,17.2833,85.41,9,0,7.58,AO,1723462038
208,constantia,44.1833,28.65,81.34,59,0,15.01,RO,1723461988
209,susuman,62.7833,148.1667,53.67,76,88,12.88,RU,1723462040
210,gizo,-8.103,156.8419,81.39,78,100,9.62,SB,1723462041
211,sretensk,52.2453,117.7093,80.37,38,21,1.77,RU,1723462043
212,ta`u,-14.2336,-169.5144,77.86,80,96,25.12,AS,1723462044
213,kalemie,-5.9475,29.1947,83.59,38,15,11.36,CD,1723462045
214,santa cruz del sur,20.7147,-77.9956,77.9,91,67,9.17,CU,1723462046
215,holualoa,19.6228,-155.9522,70.56,87,95,1.01,US,1723462047
216,colorado,-22.8375,-51.9731,50.23,51,99,4.14,BR,1723462048
217,soe,-9.8607,124.284,61.5,87,34,4.76,ID,1723462049
218,rusape,-18.5278,32.1284,82.89,7,0,11.52,ZW,1723462050
219,arraial do cabo,-22.9661,-42.0278,66.06,88,40,3.44,BR,1723462051
220,trujillo,-8.116,-79.03,58.96,94,75,5.75,PE,1723461949
221,tromso,69.6496,18.957,64.42,72,40,10.36,NO,1723462053
222,nogliki,51.8333,143.1667,54.32,98,100,5.41,RU,1723462054
223,sur,22.5667,59.5289,96.57,48,5,2.84,OM,1723462055
224,goba,7.0167,39.9833,64.18,68,54,5.48,ET,1723462056
225,swidwin,53.7746,15.7767,71.51,50,57,9.15,PL,1723462057
226,magadan,59.5667,150.8,52.9,86,100,9.82,RU,1723462058
227,timbuktu,16.7735,-3.0074,92.23,39,89,12.39,ML,1723462059
228,tostado,-29.232,-61.7692,37.98,61,7,5.32,AR,1723462060
229,bafq,31.6128,55.4107,113.07,7,0,1.99,IR,1723462061
230,piton saint-leu,-21.2196,55.3151,78.91,51,0,18.41,RE,1723462062
231,mareeba,-17.0,145.4333,63.25,86,64,3.13,AU,1723462064
232,hithadhoo,-0.6,73.0833,83.14,74,87,15.75,MV,1723462065
233,qaqortoq,60.7167,-46.0333,43.38,94,100,3.29,GL,1723462066
234,turpan,42.9333,89.1667,104.27,14,78,9.84,CN,1723462067
235,vila franca do campo,37.7167,-25.4333,74.39,55,11,3.71,PT,1723462068
236,richards bay,-28.783,32.0377,68.9,63,64,13.38,ZA,1723462069
237,deming,32.2687,-107.7586,73.29,53,0,5.75,US,1723462070
238,songling,31.1933,120.7176,82.54,86,64,7.65,CN,1723462071
239,phrai bueng,14.7483,104.3626,82.13,81,100,8.77,TH,1723462072
240,vengerovo,55.6848,76.7471,64.62,60,97,4.92,RU,1723462073
241,bikenibeu village,1.3673,173.1241,84.16,79,75,4.61,KI,1723462074
242,rikaze,29.25,88.8833,72.54,31,67,3.02,CN,1723462075
243,cururupu,-1.8283,-44.8683,80.06,73,96,4.61,BR,1723462076
244,mozarlandia,-14.7447,-50.5706,71.92,23,32,8.3,BR,1723462077
245,chos malal,-37.3781,-70.2709,44.13,53,58,5.53,AR,1723462078
246,arinos,-15.9169,-46.1056,72.05,34,62,1.48,BR,1723462079
247,punta del este,-34.9667,-54.95,46.87,74,75,21.99,UY,1723462081
248,dryden,49.7833,-92.7503,57.49,94,20,6.91,CA,1723462083
249,ouddorp,51.8117,3.9347,85.98,45,14,12.77,NL,1723462084
250,kamloops,50.6665,-120.3192,65.39,59,40,4.61,CA,1723462085
251,le grau-du-roi,43.5388,4.1356,89.01,70,0,6.91,FR,1723462086
252,usogorsk,63.4106,48.6872,67.08,50,72,4.83,RU,1723462087
253,yaren,-0.5472,166.916,83.5,66,100,3.53,NR,1723462088
254,kone,-21.0595,164.8658,67.51,80,100,7.11,NC,1723462089
255,kunashak,55.7032,61.5498,65.08,73,93,10.85,RU,1723462090
256,saldanha,-33.0117,17.9442,58.8,67,99,5.95,ZA,1723462091
257,raduzhny,62.0961,77.475,59.92,75,84,8.25,RU,1723462092
258,galliano,29.4422,-90.2992,77.0,88,0,0.0,US,1723462093
259,hasaki,35.7333,140.8333,81.93,89,70,16.46,JP,1723462094
260,nova sintra,14.8667,-24.7167,80.06,79,89,8.72,CV,1723462095
261,fergus falls,46.283,-96.0776,54.16,99,0,4.61,US,1723462096
262,bah,26.87,78.5975,92.16,58,99,8.01,IN,1723462097
263,mawu,34.4307,104.9176,67.51,67,2,5.32,CN,1723462100
264,hadibu,12.65,54.0333,85.08,59,21,24.36,YE,1723462101
265,island harbour,50.724,-1.2758,71.53,80,14,12.91,GB,1723462102
266,kirensk,57.7853,108.1119,70.68,61,99,6.93,RU,1723462103
267,yarmouth,41.7057,-70.2286,67.96,78,0,13.0,US,1723462104
268,fort morgan,40.2503,-103.8,61.45,100,100,6.91,US,1723461928
269,porto novo,6.4965,2.6036,83.44,67,99,13.24,BJ,1723462106
270,carnarvon,-24.8667,113.6333,66.72,66,0,12.08,AU,1723462107
271,kolyshley,52.7005,44.5367,65.52,50,65,12.86,RU,1723462108
272,arkhangel'sk,64.5401,40.5433,69.91,60,40,8.95,RU,1723462109
273,crane,31.3974,-102.3501,78.98,63,0,16.33,US,1723462110
274,yerofey pavlovich,53.9667,121.9667,72.36,64,50,1.54,RU,1723462111
275,hinthada,17.6333,95.4667,87.48,65,94,15.57,MM,1723462112
276,jawor,51.0513,16.1935,77.95,57,45,15.99,PL,1723462113
277,acapulco de juarez,16.8634,-99.8901,80.42,83,100,2.3,MX,1723462115
278,prado,-17.3411,-39.2208,70.43,95,98,5.57,BR,1723462116
279,karratha,-20.7377,116.8463,74.21,51,13,6.55,AU,1723462117
280,tynda,55.1667,124.7167,68.43,77,3,1.77,RU,1723462119
281,cabo san lucas,22.8909,-109.9124,82.76,84,83,1.01,MX,1723462120
282,oamaru,-45.0784,170.9801,44.38,62,7,17.05,NZ,1723462121
283,praia,14.9215,-23.5087,81.14,74,100,4.61,CV,1723462122
284,fortuna foothills,32.6578,-114.4119,87.28,66,0,5.75,US,1723462123
285,shalqar,47.8333,59.6,85.71,34,51,16.53,KZ,1723462124
286,usinsk,65.9939,57.5281,69.33,38,61,16.82,RU,1723462125
287,qarauyl,48.9451,79.255,80.47,26,92,8.79,KZ,1723462126
288,rongelap,11.1635,166.8941,82.6,81,92,13.31,MH,1723462127
289,fort bragg,35.139,-79.006,74.93,96,100,11.01,US,1723462128
290,ust'-barguzin,53.45,108.9833,67.41,80,64,2.73,RU,1723462129
291,piriapolis,-34.8682,-55.2744,47.01,75,75,19.57,UY,1723462130
292,cuencame de ceniceros,24.8711,-103.6964,69.71,65,93,4.16,MX,1723462131
293,sydney,-33.8679,151.2073,59.72,89,75,4.61,AU,1723461989
294,lospalos,-8.5186,127.0025,69.1,83,79,8.75,TL,1723462133
295,cidreira,-30.1811,-50.2056,48.07,71,32,19.04,BR,1723462134
296,zadar,44.1197,15.2422,97.41,26,0,10.36,HR,1723462135
297,geraldton,-28.7667,114.6,55.81,82,20,4.61,AU,1723462138
298,yasuj,30.6682,51.588,96.35,6,40,9.22,IR,1723462139
299,laguna,38.421,-121.4238,60.04,82,0,6.91,US,1723461897
300,marabba,12.35,32.1833,76.5,79,100,8.57,SD,1723462141
301,san pedro del parana,-26.8333,-56.2,41.88,84,0,4.38,PY,1723462142
302,victoria point,-27.5833,153.3,66.9,76,100,1.01,AU,1723462143
303,san antonio de pale,-1.4014,5.6325,74.03,85,100,13.44,GQ,1723462144
304,aykhal,66.0,111.5,48.92,91,100,9.51,RU,1723462145
305,bratsk,56.1325,101.6142,56.98,81,100,4.38,RU,1723462146
306,taro,-8.3862,115.28,66.56,96,80,2.01,ID,1723462147
307,coro,11.4045,-69.6734,78.1,85,37,11.07,VE,1723462148
308,mount isa,-20.7333,139.5,69.57,35,0,8.05,AU,1723462149
309,pallisa,1.145,33.7094,84.0,47,28,4.41,UG,1723462150
310,gamba,-2.65,10.0,73.49,88,100,4.81,GA,1723462151
311,paita,-5.0892,-81.1144,61.61,86,11,8.41,PE,1723462152
312,fomboni,-12.28,43.7425,77.11,68,2,5.5,KM,1723462153
313,severo-yeniseyskiy,60.3725,93.0408,58.57,63,84,3.42,RU,1723462155
314,nuuk,64.1835,-51.7216,45.21,87,40,2.3,GL,1723462156
315,madalena,41.2162,-8.3345,74.3,74,12,5.97,PT,1723462157
316,strathalbyn,-35.2667,138.9,57.61,56,7,7.67,AU,1723462159
317,hamilton,39.1834,-84.5333,58.96,92,0,1.99,US,1723462160
318,scottburgh,-30.2867,30.7532,67.53,54,75,15.68,ZA,1723462161
319,georgetown,5.4112,100.3354,89.53,48,20,6.91,MY,1723462162
320,siguiri,11.6667,-9.5,83.05,70,64,5.44,GN,1723462163
321,gua musang,4.8823,101.9644,77.09,92,86,2.37,MY,1723462164
322,camiri,-20.05,-63.5167,35.38,69,82,0.0,BO,1723462165
323,klaksvik,62.2266,-6.589,53.65,89,100,36.48,FO,1723462166
324,marondera,-18.1853,31.5519,81.77,6,0,11.88,ZW,1723462167
325,morant bay,17.8815,-76.4093,80.73,86,12,11.3,JM,1723462169
326,basco,20.4487,121.9702,84.78,84,100,17.09,PH,1723462170
327,lamu,-2.2717,40.902,80.02,68,11,14.81,KE,1723462171
328,shimoda,34.6667,138.95,81.3,88,4,6.58,JP,1723462172
329,lib,8.3122,167.3766,83.64,75,96,11.77,MH,1723462173
330,remontnoye,46.5614,43.6501,86.5,21,30,20.83,RU,1723462174
331,nemuro,43.3236,145.575,63.93,100,69,4.5,JP,1723462176
332,machico,32.7,-16.7667,83.71,61,20,19.57,PT,1723462177
333,mogadishu,2.0371,45.3438,84.07,70,20,17.27,SO,1723462069
334,lakatoro,-16.0999,167.4164,75.74,79,99,20.24,VU,1723462179
335,la'ie,21.6477,-157.9253,78.12,83,95,5.99,US,1723462180
336,villa yapacani,-17.4,-63.8333,56.32,44,59,5.35,BO,1723462181
337,enewetak,11.3474,162.3373,83.75,77,88,15.48,MH,1723462182
338,ducheng,23.2373,111.5317,80.55,90,100,1.16,CN,1723462183
339,nykarleby,63.5228,22.5307,65.28,68,63,8.08,FI,1723462184
340,khandud,36.9513,72.318,79.39,16,0,7.34,AF,1723462185
341,harnosand,62.6323,17.9379,67.66,59,97,18.03,SE,1723462186
342,longjiang,47.3303,123.1836,72.21,72,100,4.88,CN,1723462187
343,savelugu,9.6244,-0.8253,83.71,66,95,10.47,GH,1723462188
344,argo,37.6333,22.7333,95.04,24,0,19.51,GR,1723462190
345,tambopata,-12.7333,-69.1833,64.29,72,0,1.14,PE,1723462191
346,sumusta as sultani,28.9167,30.85,101.19,14,4,13.06,EG,1723462192
347,dourdan,48.5277,2.0111,93.22,44,14,10.83,FR,1723462194
348,mongu,-15.2484,23.1274,92.32,7,0,11.32,ZM,1723462195
349,taulaga,-11.0553,-171.0883,81.14,79,41,19.26,AS,1723462196
350,turar ryskulov,42.5333,70.3333,93.51,15,89,12.35,KZ,1723462197
351,motueka,-41.1333,173.0167,44.1,89,4,5.73,NZ,1723462198
352,priargunsk,50.3691,119.1012,76.66,48,2,5.66,RU,1723462199
353,san julian,21.0167,-102.1667,54.5,90,100,2.57,MX,1723462200
354,dobryanka,58.4619,56.4165,58.15,77,100,9.78,RU,1723462201
355,sinan,34.8262,126.1086,77.56,82,9,7.18,KR,1723462202
356,russkiy kameshkir,52.8589,46.0892,67.71,46,39,13.73,RU,1723462203
357,jayapura,-2.5333,140.7,74.12,92,41,8.01,ID,1723462204
358,nyaungdon,17.0333,95.65,84.13,73,97,8.81,MM,1723462205
359,bandar lampung,-5.4254,105.258,75.6,84,99,3.62,ID,1723462206
360,macas,-2.3167,-78.1167,65.57,96,83,1.7,EC,1723462207
361,weno,7.4515,151.8468,85.95,79,40,4.61,FM,1723462208
362,al bawiti,28.3492,28.8659,100.2,19,4,14.47,EG,1723462209
363,tianpeng,30.9866,103.9393,81.28,66,36,5.32,CN,1723462210
364,limoux,42.9167,2.1667,88.95,39,0,7.45,FR,1723462212
365,kabinda,-6.1333,24.4833,98.98,13,0,3.51,CD,1723462213
366,conception bay south,47.4999,-52.9981,67.05,91,38,14.36,CA,1723462076
367,ardestan,33.3761,52.3694,105.84,10,49,8.43,IR,1723462215
368,malabar,-33.9667,151.25,58.77,94,75,4.61,AU,1723462216
369,songjianghe,42.1859,127.479,68.97,95,8,2.73,CN,1723462217
370,queenstown,-31.8976,26.8753,62.19,25,65,8.39,ZA,1723462218
371,rangkasbitung,-6.3591,106.2494,78.15,76,100,3.29,ID,1723462219
372,nova vicosa,-17.8919,-39.3719,74.91,80,99,5.5,BR,1723462220
373,ulundi,-28.3352,31.4162,60.67,79,74,5.84,ZA,1723462221
374,olyokminsk,60.3736,120.4264,74.35,57,83,4.5,RU,1723462222
375,luau,-10.7073,22.2247,95.7,9,0,2.93,AO,1723462223
376,tefe,-3.3542,-64.7114,73.51,94,75,3.44,BR,1723462224
377,mosjoen,65.836,13.1908,63.12,72,75,2.3,NO,1723462225
378,wenzhou,27.9994,120.6668,86.43,75,29,4.18,CN,1723462226
379,rmi capitol,7.0893,171.3805,84.15,79,75,3.44,MH,1723462227
380,chui,-33.6971,-53.4616,46.29,60,82,13.38,UY,1723462229
381,gulf shores,30.246,-87.7008,77.04,98,0,0.0,US,1723462231
382,labasa,-16.4167,179.3833,70.81,83,100,8.39,FJ,1723462232
383,sanming,26.2486,117.6186,74.71,99,81,0.72,CN,1723462233
384,jumla,29.2747,82.1838,65.68,87,99,3.94,NP,1723462234
385,floro,61.5996,5.0328,62.56,55,0,5.75,NO,1723462235
386,tacuarembo,-31.7333,-55.9833,36.12,87,4,8.05,UY,1723462176
387,kuching,1.55,110.3333,84.42,79,20,2.3,MY,1723462237
388,kingston,17.997,-76.7936,83.35,74,20,4.61,JM,1723462096
389,wewak,-3.5534,143.6268,80.26,88,13,9.78,PG,1723462239
390,tarinkot,32.6268,65.8733,103.71,6,0,8.5,AF,1723462240
391,kolonia town,6.964,158.206,78.8,94,40,3.44,FM,1723462241
392,afaahiti,-17.75,-149.2833,74.32,87,70,8.75,PF,1723462242
393,twyford,51.4752,-0.8604,88.39,59,34,5.99,GB,1723462244
394,atar,20.5169,-13.0499,95.36,27,99,15.17,MR,1723462245
395,waingapu,-9.6567,120.2641,75.11,81,3,10.51,ID,1723462247
396,tabou,4.423,-7.3528,77.59,85,96,11.25,CI,1723462248
397,tannum sands,-23.9504,151.3693,66.09,94,75,13.8,AU,1723462250
398,makar'yev,57.8797,43.8069,57.47,94,100,7.2,RU,1723462251
399,port augusta,-32.5,137.7667,59.36,48,0,9.01,AU,1723462252
400,happy valley-goose bay,53.3168,-60.3315,64.71,63,75,5.75,CA,1723462253
401,kosh-agach,50.0,88.6667,67.17,34,67,12.03,RU,1723462254
402,tchintabaraden,15.8969,5.7985,89.96,48,85,9.22,NE,1723462255
403,mournies,35.4764,24.0092,88.2,48,0,8.05,GR,1723462256
404,codrington,-38.2667,141.9667,55.81,64,34,13.49,AU,1723462257
405,hanko,59.8333,22.95,60.06,88,99,26.78,FI,1723462259
406,jining,35.405,116.5814,80.19,79,7,6.6,CN,1723462260
407,maloyaroslavets,55.0146,36.4719,56.89,72,100,11.63,RU,1723462262
408,santa terezinha,-29.9002,-50.0904,47.61,75,25,20.47,BR,1723462263
409,sant lluis,39.8526,4.2594,90.0,51,0,12.66,ES,1723462264
410,lagos,6.5833,3.75,84.54,64,100,10.69,NG,1723462265
411,imbituba,-28.24,-48.6703,52.0,55,2,10.87,BR,1723462266
412,zapolyarnyy,69.4154,30.8136,69.75,44,4,10.07,RU,1723462267
413,dalandzadgad,43.5708,104.425,79.9,35,30,12.64,MN,1723462268
414,shingu,33.7333,135.9833,80.42,84,16,2.01,JP,1723462269
415,mao,39.8885,4.2658,90.16,51,0,12.66,ES,1723462271
416,lincheng,19.9078,109.6858,83.86,79,100,2.89,CN,1723462272
417,port alfred,-33.5906,26.891,65.17,56,73,8.01,ZA,1723462273
418,buta,2.7858,24.73,97.09,34,43,0.56,CD,1723462274
419,maragogi,-9.0122,-35.2225,79.97,66,37,11.81,BR,1723462275
420,pangoa,-12.1167,-73.0,66.9,85,80,1.19,PE,1723462276
421,jonquiere,48.4165,-71.2488,58.39,93,91,3.06,CA,1723462167
422,bela,25.9333,81.9833,92.25,61,98,4.14,IN,1723462278
423,impfondo,1.6381,18.0667,96.48,36,86,2.86,CG,1723462279
424,levuka,50.1834,-105.4011,46.13,93,20,6.91,CA,1723462280
425,sept-iles,50.2001,-66.3821,64.4,77,75,6.91,CA,1723462281
426,goz beida,13.95,20.55,85.37,57,92,7.45,TD,1723462282
427,chinna salem,11.65,78.9,90.64,58,95,4.97,IN,1723462283
428,florina,40.782,21.4098,94.32,18,0,7.76,GR,1723462284
429,manaure,11.7751,-72.4445,82.78,75,68,12.44,CO,1723462285
430,batticaloa,7.7102,81.6924,84.9,73,100,13.06,LK,1723462286
431,sao joao da barra,-21.6403,-41.0511,71.08,64,79,12.1,BR,1723462287
432,suva,-18.1416,178.4415,72.88,73,40,5.75,FJ,1723462288
433,edson,53.5835,-116.4356,50.14,87,0,5.75,CA,1723462291
434,lalganj,25.8667,85.1833,95.4,52,86,0.87,IN,1723462292
435,aqadyr,48.2553,72.8483,75.34,43,88,6.8,KZ,1723462293
436,nagqu,31.5,92.0,56.03,54,21,9.93,CN,1723462294
437,n'zeto,-7.2312,12.8666,74.79,74,100,6.49,AO,1723462295
438,zahedan,29.4963,60.8629,102.11,8,0,9.22,IR,1723462298
439,yoshida-kasugacho,37.6833,138.8833,78.87,93,29,7.34,JP,1723462299
440,cuttack,20.465,85.8793,87.17,71,100,11.72,IN,1723462300
441,palikir - national government center,6.9248,158.1611,77.74,94,40,3.44,FM,1723462301
442,rupea,46.0333,25.2167,89.96,27,0,8.01,RO,1723462302
443,karkala,13.2,74.9833,82.18,79,96,8.57,IN,1723462303
444,cordeiro,-22.0286,-42.3608,64.58,60,95,3.67,BR,1723462305
445,nykvarn,59.8,18.3,67.41,46,80,11.18,SE,1723462306
446,sale,34.0389,-6.8166,77.68,73,40,8.05,MA,1723462307
447,yakeshi,49.2833,120.7333,66.65,62,1,2.13,CN,1723462308
448,irituia,-1.7711,-47.4381,82.13,69,57,4.18,BR,1723462217
449,swift current,50.2834,-107.8014,56.21,76,0,11.5,CA,1723462311
450,badagry,6.4167,2.8833,82.18,73,91,14.5,NG,1723462312
451,yermentau,51.6214,73.1069,68.5,59,82,8.63,KZ,1723462313
452,severnoye,56.3491,78.3619,63.36,70,65,5.97,RU,1723462314
453,shushtar,32.0455,48.8567,119.26,7,0,10.33,IR,1723462315
454,archangelos,36.2149,28.1149,94.86,34,0,8.95,GR,1723462316
455,katabu,-4.9333,122.5167,75.76,77,88,6.26,ID,1723462317
456,tucuma,-0.1833,-50.05,83.14,69,41,6.51,BR,1723462318
457,mahina,-17.5065,-149.489,76.77,88,75,11.5,PF,1723462319
458,tegueste,28.5167,-16.3167,72.75,78,20,18.41,ES,1723462320
459,ghanzi,-21.5667,21.7833,86.23,7,0,5.88,BW,1723462250
460,abadan,30.3392,48.3043,118.35,11,0,13.8,IR,1723462322
461,villamontes,-21.25,-63.5,36.84,87,100,0.0,BO,1723462324
462,puerto baquerizo moreno,-0.9,-89.6,68.25,81,91,14.56,EC,1723462207
463,monze,-16.2833,27.4833,87.33,8,0,10.11,ZM,1723462326
464,arteche,12.2645,125.4048,80.02,86,79,2.68,PH,1723462327
465,bengkulu,-3.8004,102.2655,78.12,82,68,10.67,ID,1723462329
466,kamina,-8.7386,24.9906,93.61,11,3,6.69,CD,1723462330
467,zemio,5.0314,25.1361,90.07,44,46,2.98,CF,1723462332
468,san patricio,28.017,-97.5169,80.82,80,33,4.92,US,1723462333
469,yokadouma,3.5167,15.05,78.35,81,100,3.36,CM,1723462334
470,sungai penuh,-2.0833,101.3833,68.45,96,64,0.72,ID,1723462335
471,port el kantaoui,35.8924,10.5943,95.23,36,0,12.59,TN,1723462336
472,pudozh,61.8099,36.5345,65.79,58,100,6.35,RU,1723462337
473,east london,-33.0153,27.9116,68.94,34,0,13.8,ZA,1723462263
474,point pedro,9.8167,80.2333,86.05,69,84,3.36,LK,1723462339
475,mapastepec,15.4333,-92.9,75.83,78,100,4.52,MX,1723462340
476,bamboo flat,11.7,92.7167,84.29,79,75,9.22,IN,1723462342
477,dum duma,27.5667,95.5667,81.03,92,37,4.7,IN,1723462343
478,azemmour,33.2895,-8.3425,79.11,63,8,14.16,MA,1723462344
479,zhigalovo,54.8097,105.1578,66.38,87,99,5.44,RU,1723462345
480,karaton,-6.3424,106.1045,74.77,79,100,3.04,ID,1723462346
481,kondopoga,62.2057,34.2614,68.34,56,68,3.56,RU,1723462347
482,ipilan,8.8431,117.9033,80.44,86,74,4.92,PH,1723462348
483,blenheim,-41.516,173.9528,35.53,86,6,7.0,NZ,1723462349
484,bubaque,11.2833,-15.8333,79.25,84,100,11.52,GW,1723462350
485,ola,59.5833,151.2833,53.64,84,97,11.81,RU,1723462351
486,norilsk,69.3535,88.2027,72.86,30,58,2.08,RU,1723462352
487,letterkenny,54.95,-7.7333,63.59,59,55,16.42,IE,1723462353
488,qobustan,40.0824,49.412,85.75,53,30,13.22,AZ,1723462354
489,kachkanar,58.7,59.4948,52.14,97,82,3.44,RU,1723462355
490,kodinsk,58.6881,99.1844,64.15,70,77,3.91,RU,1723462356
491,cukai,4.25,103.4167,80.1,87,80,5.93,MY,1723462357
492,changping,40.2186,116.2197,76.28,65,54,5.3,CN,1723462358
493,talitsy,56.5289,42.3344,56.39,95,100,9.98,RU,1723462359
494,gaspe,48.8334,-64.4819,64.62,72,20,6.91,CA,1723462262
495,yeraliyev,43.2,51.65,87.37,32,22,7.99,KZ,1723462361
496,kaduy,59.2,37.15,69.73,44,98,7.76,RU,1723462362
497,st. john's,47.5649,-52.7093,67.78,87,100,18.41,CA,1723462344
498,chapaev,50.2,51.1667,80.65,26,94,15.55,KZ,1723462365
499,murun-kuren,49.6342,100.1625,59.05,95,100,4.34,MN,1723462366
500,patos,-7.0244,-37.28,84.52,38,49,11.41,BR,1723462367
501,chilliwack,49.1747,-121.9443,64.45,83,37,2.3,CA,1723462115
502,nort-sur-erdre,47.4333,-1.5,90.84,37,48,6.71,FR,1723462369
503,sabang,5.8933,95.3214,84.16,76,56,20.78,ID,1723462370
504,miyaly,48.8844,53.7836,81.64,39,42,5.61,KZ,1723462371
505,salavan,15.7167,106.4167,77.56,95,100,0.56,LA,1723462372
506,salalah,17.0151,54.0924,80.69,83,100,6.91,OM,1723462373
507,arno,60.1167,18.6333,63.91,61,100,14.83,SE,1723462374
508,kayangel,8.0823,134.7173,83.1,74,17,2.89,PW,1723462375
509,erzurum,40.0,41.5,79.21,33,5,8.41,TR,1723462376
510,arpacay,40.8487,43.3291,75.88,41,60,11.41,TR,1723462377
511,konarka,19.9,86.1167,85.87,76,67,14.97,IN,1723462378
512,bouarfa,32.53,-1.95,96.06,14,91,10.29,MA,1723462379
513,loreto,22.2667,-101.9667,57.38,88,87,2.51,MX,1723462380
514,mishelevka,52.8575,103.1719,58.8,97,100,12.68,RU,1723462381
515,meadow lake,34.8014,-106.5436,75.99,39,78,3.56,US,1723462383
516,waiuku,-37.25,174.75,56.66,88,53,11.56,NZ,1723462384
517,kabompo,-13.5927,24.2008,92.75,6,0,8.3,ZM,1723462385
518,kem',64.9555,34.5793,60.98,79,98,8.28,RU,1723462386
519,lazaro cardenas,17.9583,-102.2,77.94,87,100,2.48,MX,1723462349
520,medina,24.4686,39.6142,113.43,7,40,8.05,SA,1723462388
521,ust'-kut,56.7938,105.7672,67.37,61,98,9.95,RU,1723462389
522,alice town,25.7167,-79.3,84.24,75,1,11.72,BS,1723462132
523,padang,-0.9492,100.3543,79.86,86,72,4.18,ID,1723462391
524,castillos,-34.1667,-53.8333,46.0,59,71,13.47,UY,1723462392
525,bathsheba,13.2167,-59.5167,79.41,100,75,8.05,BB,1723462393
526,portland,45.5234,-122.6762,59.61,82,100,1.01,US,1723462146
527,heyuan,23.7333,114.6833,80.42,88,99,2.51,CN,1723462395
528,palmer,42.1584,-72.3287,59.52,85,0,0.0,US,1723462396
529,oncativo,-31.9135,-63.682,43.09,40,6,2.42,AR,1723462397
530,kapuskasing,49.4169,-82.4331,46.49,100,40,2.3,CA,1723462400
531,temirtau,50.0544,72.9483,77.88,36,90,14.54,KZ,1723462401
532,orosei,40.3798,9.6929,86.77,55,0,7.99,IT,1723462402
533,plastun,44.7561,136.2939,58.01,97,12,1.16,RU,1723462403
534,urangan,-25.3,152.9,66.33,85,100,22.1,AU,1723462404
535,dengzhou,37.8086,120.7508,80.56,74,5,2.19,CN,1723462405
536,tamandare,-8.7597,-35.1047,80.85,62,35,10.87,BR,1723462406
537,korla,41.7597,86.1469,91.17,20,35,7.11,CN,1723462407
538,liwale,-9.7667,37.9333,90.66,25,18,6.08,TZ,1723462408
539,lampasas,31.2168,-98.2336,72.61,93,0,7.87,US,1723462204
540,mugia,43.1041,-9.2179,68.58,90,93,7.14,ES,1723462410
541,minas de marcona,-15.2119,-75.1103,48.34,90,67,6.2,PE,1723462411
542,moyynkum,44.2914,72.9469,96.73,15,12,10.36,KZ,1723462412
543,fuding,27.3273,120.214,79.81,96,42,1.7,CN,1723462413
544,maun,-19.9833,23.4167,91.78,5,5,7.56,BW,1723462414
545,flying fish cove,-10.4217,105.6791,76.68,78,75,12.66,CX,1723462415
546,elliot lake,46.3834,-82.6331,51.22,89,100,4.12,CA,1723462147
547,bechar,31.6167,-2.2167,98.92,13,77,3.44,DZ,1723462417
548,dogbo,6.8167,1.7833,85.82,60,97,8.97,BJ,1723462419
549,tsiombe,-25.3,45.4833,85.8,23,0,12.73,MG,1723462420
550,acaponeta,22.4964,-105.3594,75.15,96,98,1.83,MX,1723462421
551,slavutych,51.5196,30.7343,69.21,50,0,8.99,UA,1723462422
552,i-n-salah,27.1935,2.4607,108.21,10,0,18.72,DZ,1723462423
553,haifa,32.8156,34.9892,90.54,55,20,12.66,IL,1723462424
554,greymouth,-42.4667,171.2,41.92,90,53,6.87,NZ,1723462425
555,macael,37.3097,-2.3012,92.14,27,1,8.95,ES,1723462426
556,tadine,-21.55,167.8833,68.14,69,100,17.76,NC,1723462427
557,satipo,-11.2522,-74.6386,67.37,97,84,0.83,PE,1723462428
558,tomatlan,19.9333,-105.25,73.47,93,98,3.18,MX,1723462429
559,maricopa,33.0581,-112.0476,81.46,65,0,4.61,US,1723462418
560,yinchuan,38.4681,106.2731,82.72,26,0,6.33,CN,1723462431
561,laojunmiao,39.8333,97.7333,77.49,19,100,5.5,CN,1723462432
562,el granada,37.5027,-122.4694,57.42,94,100,8.05,US,1723462433
563,superior,46.7208,-92.1041,62.71,87,0,4.61,US,1723462434
564,kani keli,-12.9536,45.1033,77.25,70,4,5.95,YT,1723462435
565,coronel dorrego,-38.7187,-61.2873,38.01,74,19,6.67,AR,1723462380
566,la sarre,48.8002,-79.1996,55.36,95,98,4.54,CA,1723462437
567,san luis de la loma,17.2706,-100.8939,76.6,80,100,4.79,MX,1723462439
568,villa bruzual,9.3328,-69.1208,73.87,95,10,1.23,VE,1723462440
569,noumea,-22.2763,166.4572,67.42,74,100,14.88,NC,1723462441
570,kalabo,-14.97,22.6814,93.45,6,0,11.54,ZM,1723462442
571,ust-nera,64.5667,143.2,54.39,94,98,6.4,RU,1723462443
572,prien am chiemsee,47.8667,12.3333,84.16,62,80,6.2,DE,1723462444
573,kievka,50.2619,71.5514,78.62,34,57,13.53,KZ,1723462445
574,kunming,25.0389,102.7183,76.93,44,0,8.95,CN,1723462446
575,shelby,35.2001,-89.8668,69.91,85,40,4.61,US,1723462447
576,riberalta,-10.9833,-66.1,66.4,88,40,4.61,BO,1723462448
577,erenhot,43.6475,111.9767,76.68,41,91,7.72,CN,1723462449
578,popondetta,-8.7537,148.2534,73.15,96,88,2.95,PG,1723462450
579,salinas,36.6777,-121.6555,55.92,95,100,8.05,US,1723462215
580,puerto padre,21.195,-76.6028,81.68,83,5,5.64,CU,1723462452
581,trincomalee,8.5711,81.2335,84.6,79,100,13.09,LK,1723462453
582,fraserburgh,57.6874,-2.0184,60.62,93,100,28.3,GB,1723462454
583,pitimbu,-7.4706,-34.8086,80.58,64,65,12.84,BR,1723462455
584,kutum,14.2,24.6667,85.23,48,90,9.4,SD,1723462456
585,monte alegre,-2.0078,-54.0692,78.64,77,18,3.13,BR,1723462457
586,ambon,-3.6954,128.1814,81.99,90,40,6.91,ID,1723462459
